{"type":"FeatureCollection","features":[{"type":"Feature","id":"01","geometry":{"type":"Point","coordinates":[103.5351,35.1738]},"properties":{"name":"China","population":1315.8}},{"type":"Feature","id":"02","geometry":{"type":"Point","coordinates":[138.6035,36.5272]},"properties":{"name":"Japan","population":128.1}},{"type":"Feature","id":"03","geometry":{"type":"Point","coordinates":[122.6293,11.1784]},"properties":{"name":"Philippines","population":83.1}},{"type":"Feature","id":"04","geometry":{"type":"Point","coordinates":[79.3212,22.3907]},"properties":{"name":"India","population":1103.4}},{"type":"Feature","id":"05","geometry":{"type":"Point","coordinates":[173.1884,-41.8368]},"properties":{"name":"New Zealand","population":4}},{"type":"Feature","id":"06","geometry":{"type":"Point","coordinates":[-18.2812,64.8115]},"properties":{"name":"Iceland","population":0.3}},{"type":"Feature","id":"07","geometry":{"type":"Point","coordinates":[2.351,47.5023]},"properties":{"name":"France","population":60.5}},{"type":"Feature","id":"08","geometry":{"type":"Point","coordinates":[23.8623,-29.3821]},"properties":{"name":"South Afraica","population":47.4}},{"type":"Feature","id":"10","geometry":{"type":"Point","coordinates":[-72.7734375,3.118576217]},"properties":{"name":"Colombia","population":45.6}},{"type":"Feature","id":"11","geometry":{"type":"Point","coordinates":[-72.15820313,-36.84446074]},"properties":{"name":"Chile","population":16.3}},{"type":"Feature","id":"12","geometry":{"type":"Point","coordinates":[32.49755859,1.559865865]},"properties":{"name":"Uganda","population":31.66}},{"type":"Feature","id":"13","geometry":{"type":"Point","coordinates":[-98.17382813,40.01078714]},"properties":{"name":"United States","population":298.2}},{"type":"Feature","properties":{"name":"United Kingdom","population":59.7},"geometry":{"type":"Point","coordinates":[-1.58203125,52.908902047770255]}}]}